{"rows":[{"adcode":820001,"lng":113.5528956,"lat":22.20787,"name":"花地玛堂区","level":"district","parent":820000},{"adcode":820002,"lng":113.5489608,"lat":22.1992075,"name":"花王堂区","level":"district","parent":820000},{"adcode":820003,"lng":113.5501828,"lat":22.19372083,"name":"望德堂区","level":"district","parent":820000},{"adcode":820004,"lng":113.5536475,"lat":22.18853944,"name":"大堂区","level":"district","parent":820000},{"adcode":820005,"lng":113.5419278,"lat":22.18736806,"name":"风顺堂区","level":"district","parent":820000},{"adcode":820006,"lng":113.5587044,"lat":22.15375944,"name":"嘉模堂区","level":"district","parent":820000},{"adcode":820007,"lng":113.5695992,"lat":22.13663,"name":"路凼填海区","level":"district","parent":820000},{"adcode":820008,"lng":113.5599542,"lat":22.12348639,"name":"圣方济各堂区","level":"district","parent":820000}],"total":8}